id,type,address,lon,lat
1,mid_risk,江苏省苏州市苏州工业园区锦溪苑26幢,120.7712801278235,31.312531643702094
2,mid_risk,江苏省苏州市吴江区长安花园21幢,120.65626019202041,31.135651787301686
3,mid_risk,内蒙古自治区呼和浩特市新城区迎新路街道展北社区,111.73702287160293,40.84443104372867
4,mid_risk,江苏省苏州市吴中区世茂石湖湾花园二期273幢,120.61361592268129,31.24759053529684
5,mid_risk,内蒙古自治区呼和浩特市新城区成吉思汗大街街道石头新营村,111.68964776612607,40.88362623916783
6,mid_risk,内蒙古包头市昆都仑区市府东路街道恩和小区3区,109.84878513878205,40.65458219387466
7,mid_risk,江苏省苏州市吴中区郭巷街道塘北社区124号,120.68350786424072,31.288381654765526
8,mid_risk,广东省深圳市罗湖区东门街道新园路明华广场1至6楼(含6A与M层)商业区,114.12538077383668,22.553660132052713
9,mid_risk,内蒙古自治区呼和浩特市新城区保和少镇野马图村,111.67162012199908,40.86387702118283
10,mid_risk,内蒙古自治区呼和浩特市玉泉区小黑河镇鑫盛社区,111.62818085228363,40.77099355135446
11,mid_risk,内蒙古自治区呼伦贝尔市满洲里市南区街道,117.38543585768029,49.604098854866066
12,mid_risk,内蒙古自治区呼和浩特市赛罕区敕勒川街道前不塔气,111.7931080371351,40.84168694261607
13,mid_risk,江苏省苏州市姑苏区大竹园3号楼,120.63162299561212,31.289785892321273
14,mid_risk,江苏省苏州市姑苏区天辰花园小区18幢,120.61280403416137,31.275827903504705
15,mid_risk,内蒙古自治区呼和浩特市武川县上秃亥乡刘家村,111.3151298261281,41.19215540346631
16,high_risk,天津市空港经济区雅苑足道,117.39443284626952,39.16714459956509
17,mid_risk,江苏省苏州市苏州工业园区东城郡115幢,120.73866310390896,31.32346698838227
18,mid_risk,内蒙古自治区呼和浩特市玉泉区石东路街道迎春社区,111.67831115059015,40.8029838366871
19,mid_risk,广东省深圳市南山区招商街道爱榕园18栋,113.93743190526811,22.50671628559693
20,mid_risk,内蒙古自治区呼和浩特市新城区中山东路街道中山社区,111.68257953905136,40.826313616013344
21,mid_risk,内蒙古自治区呼和浩特市新城区海拉尔路街道府兴社区,111.67162012199908,40.86387702118283
22,mid_risk,江苏省苏州市苏州工业园区东湖大郡花园二期22幢,120.73824260709974,31.31716322220916
23,mid_risk,江苏省苏州市吴中区郭巷街道独墅湖西金悦花园一期19幢,120.68761401872683,31.275081856102695
24,mid_risk,内蒙古包头市昆都仑区阿尔丁街道熙华公寓,109.84206455593969,40.66509354656276
25,mid_risk,广东省深圳市南山区蛇口街道雷公岭村15号,113.93544197890307,22.496796034604362
26,mid_risk,内蒙古自治区呼和浩特市新城区成吉思汗大街街道铁路社区,111.67732615859845,40.86547910169415
27,high_risk,辽宁省葫芦岛市绥中县加碑岩乡窝岭村,119.62661918258385,40.41050857562253
28,mid_risk,内蒙古自治区呼和浩特市赛罕区昭乌达路街道万锦社区,111.70842064450414,40.79839423697477
29,mid_risk,江苏省苏州市吴中区龙西新村（箭阙苑）40幢,120.62606374213306,31.28130336492789
30,mid_risk,内蒙古包头市昆都仑区前进街道钢铁大街37号街坊,109.82194610573822,40.67049463298572
31,mid_risk,江苏省苏州市苏州工业园区斜塘老街12号,120.74278309229993,31.310163319802033
32,mid_risk,四川省成都市天府新区华阳街道洛森堡新殿蝶郡小区,104.08776999642765,30.488610947558758
33,mid_risk,江苏省苏州市苏州工业园区澜溪苑18幢,120.77193966372893,31.306729660121967
34,mid_risk,内蒙古自治区呼和浩特市赛罕区敕勒川街道香格里社区,111.77191099150781,40.817626966016306
35,mid_risk,四川省成都市高新区桂溪街道世龙公馆,104.07148389719285,30.5646682573346
36,mid_risk,内蒙古自治区呼和浩特市新城区西街街道西落凤社区,111.68858812494649,40.83207066734069
37,mid_risk,内蒙古自治区呼和浩特市新城区海拉尔路街道赛马场社区,111.67080221483224,40.853926415828774
38,mid_risk,江苏省苏州市苏州工业园区湖畔天城花园16幢,120.74469342879743,31.324105300185174
39,mid_risk,湖北省武汉市武昌区中华路街道凯莱熙酒店户部巷店,114.30597487072234,30.553469090728797
40,mid_risk,黑龙江省鸡西市鸡东县蓝天名苑小区22号楼,131.16096567531937,45.26335822574614
41,mid_risk,江苏省苏州市相城区合景峰汇8期12幢,120.61885843363753,31.37044621839508
42,mid_risk,内蒙古自治区呼和浩特市土默特左旗金海街道博雅西苑小区,111.54460214831307,40.787294959993844
43,mid_risk,黑龙江省黑河市爱辉区鹿源春社区金达之家小区中房49号楼,127.48908001001186,50.25129834679254
44,mid_risk,江苏省苏州市苏州工业园区京隆生活区,120.77167789750332,31.319789573315422
45,mid_risk,江苏省苏州市吴中区碧水湾花园60幢,120.6484392747589,31.263185649791733
46,mid_risk,内蒙古自治区呼和浩特市玉泉区鄂尔多斯路街道蓝宇社区,111.63527566920142,40.79934882851331
47,mid_risk,江苏省苏州市吴江区盛泽镇绿洲华庭小区41栋,120.63923193747668,30.908242291535306
48,mid_risk,江苏省苏州市吴中区尹山湖景花园三期43幢,120.69506815784864,31.252644025063447
49,mid_risk,江苏省苏州市张家港市杨舍镇金新城悦府7幢,120.58459463606209,31.868259449143395
50,mid_risk,广东省深圳市罗湖区桂园街道华瑞大厦B座（不含底商）,114.11590598630386,22.543080122584016
51,mid_risk,江苏省苏州市吴中区水岸清华97幢,120.61545152016038,31.230753683781526
52,mid_risk,内蒙古包头市昆都仑区白云街道华丰园小区,109.81323550669963,40.660693974712096
53,mid_risk,广西壮族自治区百色市德保县东凌镇登限村念洞屯,106.39155971372631,23.520344548700056
54,mid_risk,江苏省苏州市姑苏区平江街道凤池弄5-2号楼,120.62638048465587,31.32409141885863
55,mid_risk,江苏省苏州市苏州工业园区夏家桥118号9幢,120.66192328961641,31.306180086980113
56,mid_risk,江苏省苏州市相城区苏州万科魅力花园3幢,120.6148586385238,31.396914153392792
57,mid_risk,黑龙江省鸡西市鸡东县乾宏家园小区2号楼,131.14511705086784,45.26294681191099
58,high_risk,内蒙古自治区呼和浩特市武川县上秃亥乡圪奔村,111.4072881561939,41.31151401640505
59,mid_risk,江苏省苏州市苏州工业园区星胜客11幢,120.82677914901042,31.30849074062331
60,mid_risk,内蒙古自治区呼和浩特市武川县可镇滨河社区,111.47168929515415,41.09408103625461
61,mid_risk,内蒙古自治区呼和浩特市土默特左旗金海街道金厦小区,111.56907738023793,40.80252523925524
62,mid_risk,江苏省苏州市吴江区长安路2358号吴江科技创业园,120.6686784572209,31.132605675883436
63,mid_risk,江苏省苏州市张家港市凤凰镇双龙花园62幢,120.64141659177353,31.78401332035473
64,mid_risk,江苏省苏州市苏州工业园区锦溪苑5期4幢,120.76847103666326,31.308291895690072
65,mid_risk,黑龙江省鸡西市鸡东县人民医院,131.1605720378449,45.25685943965806
66,mid_risk,四川省成都市高新区中和街道长城馨苑小区,104.08048923026928,30.530247173073445
67,mid_risk,湖北省武汉市江岸区车站街道华清园小区4栋,114.30810448359485,30.602224531179658
68,mid_risk,江苏省苏州市吴中区碧堤半岛53幢,120.68700164386068,31.248375469917278
69,mid_risk,江苏省苏州市相城区官渡花园26幢,120.45560434279837,31.42315654155763
70,mid_risk,内蒙古自治区呼和浩特市新城区西街街道艺术厅北苑社区,111.68777668557934,40.83047459615723
71,mid_risk,内蒙古自治区呼和浩特市土默特左旗金海街道上善雅筑小区,111.55734928316076,40.80139538846216
72,mid_risk,广东省深圳市龙岗区坂田街道马安堂社区侨联东10巷1号顺兴楼,114.09049831326804,22.631238617996555
73,mid_risk,内蒙古自治区呼和浩特市新城区成吉思汗大街街道北苑社区,111.67162012199908,40.86387702118283
74,mid_risk,内蒙古自治区呼和浩特市新城区成吉思汗大街街道呼哈路社区,111.68606774917716,40.87337040299888
75,mid_risk,内蒙古包头市昆都仑区阿尔丁街道锡华世纪花园小区玫瑰苑,109.85259709821364,40.65812194394228
76,mid_risk,四川省成都市天府新区四河社区四河小区,103.83453533757053,30.674580119152115
77,mid_risk,江苏省苏州市吴中区甪直镇长巨村下扒浜马娄里172号,120.78336943354624,31.227612465010967
78,mid_risk,黑龙江省黑河市爱辉区武庙屯社区之路佳苑小区4号楼,127.52070997583225,50.24805641321888
79,mid_risk,江苏省苏州市苏州工业园区明日之星1幢,120.83323509104952,31.34001841862917
80,mid_risk,四川省成都市天府新区华阳街道伏龙社区丽景苑小区,104.05961997632257,30.538321306025484
81,mid_risk,内蒙古自治区呼和浩特市玉泉区石东路街道康乐社区,111.67600277492114,40.805572620048835
82,mid_risk,江苏省苏州市张家港市杨舍镇新航花苑18幢,120.58738863568978,31.860027648669956
83,mid_risk,江苏省苏州市常熟市中欧假日花园9幢,120.82761322567643,31.626607894193125
84,mid_risk,江苏省苏州市苏州工业园区凤凰城49幢,120.77485403629494,31.312205854259766
85,mid_risk,内蒙古自治区呼和浩特市土默特左旗台阁牧镇西甲兰村,111.50421217665124,40.7080701097403
86,mid_risk,江苏省苏州市吴江区江陵街道城南花苑2167幢,120.66751272616061,31.132345485678947
87,mid_risk,江苏省苏州市吴中区郭巷街道双湾花园35幢,120.71143986559854,31.248301607618806
88,mid_risk,内蒙古自治区呼和浩特市新城区成吉思汗大街街道代洲营村,111.66256825669723,40.87146246668604
89,mid_risk,江苏省苏州市张家港市杨舍镇民丰苑西区,120.57890917065889,31.866740552307675
90,mid_risk,内蒙古自治区呼和浩特市回民区攸攸板镇倘不浪社区,111.59484635175826,40.80932441412637
91,mid_risk,江苏省苏州市常熟市紫晶城5幢,120.78420773224815,31.58857601790287
92,mid_risk,内蒙古自治区呼和浩特市土默特左旗白庙子镇瓦房院新村,111.62095928445837,40.716946391666966
93,mid_risk,江苏省苏州市吴江区八坼街道邮电街23号2幢,120.6778640352979,31.079192119465805
94,mid_risk,四川省成都市金牛区驷马桥街道沙河云景湾小区,104.09570850188042,30.702341227964304
95,mid_risk,内蒙古自治区呼和浩特市赛罕区昭乌达南路街道小台什社区,111.7420526638144,40.80237655961672
96,mid_risk,内蒙古自治区呼和浩特市赛罕区昭乌达南路街道香榭花堤社区,111.74955396397549,40.77199901053976
97,mid_risk,内蒙古自治区呼和浩特市土默特左旗台阁牧镇霍寨村,111.54545428091983,40.806826427281806
98,mid_risk,内蒙古自治区呼和浩特市赛罕区中专路街道创业社区,111.72646499711361,40.829661977643454
99,mid_risk,内蒙古自治区呼和浩特市新城区迎新路街道新春社区,111.67831115059015,40.8029838366871
100,mid_risk,广东省深圳市龙岗区中兴路高时石材B区A钢构厂房,114.0869320403946,22.627461021178867
101,mid_risk,江苏省苏州市苏州工业园区花语江南20幢,120.72797003444039,31.254835841245324
102,mid_risk,江苏省苏州市吴中区木渎镇沈巷村47～69号,120.54648977395652,31.27065498499253
103,mid_risk,内蒙古自治区呼和浩特市玉泉区石东路街道富丽社区,111.68237966607539,40.793665381220485
104,mid_risk,内蒙古自治区呼和浩特市赛罕区敕勒川街道怡水园社区,111.78441199064576,40.81857336205405
105,mid_risk,江苏省苏州市姑苏区永林二区,120.64947223626481,31.32424542434894
106,mid_risk,内蒙古自治区呼和浩特市回民区攸攸板镇孔家营社区,111.62044177065405,40.80580027029392
107,mid_risk,江苏省苏州市吴中区郭巷街道国泰社区国泰一村105幢,120.68846803777517,31.261991531736527
108,mid_risk,四川省成都市金堂县赵镇街道生态水城澜岸小区,104.42370104358342,30.855266853395868
109,mid_risk,内蒙古自治区呼和浩特市新城区成吉思汗大街街道东河社区,111.67162012199908,40.86387702118283
110,mid_risk,内蒙古自治区呼和浩特市玉泉区兴隆巷街道四里营东社区,111.6680086643573,40.80225463933209
111,mid_risk,内蒙古包头市昆都仑区阿尔丁街道佳园小区老干院,109.8394335089315,40.66881242847581
112,mid_risk,内蒙古自治区呼和浩特市赛罕区科尔沁街道后不塔气社区,111.78594315238752,40.84620475971935
113,high_risk,内蒙古自治区呼和浩特市赛罕区榆林镇陶卜齐村,112.09160121402648,40.894505857464324
114,mid_risk,内蒙古自治区呼和浩特市玉泉区鄂尔多斯路街道巴彦乌素社区,111.63527566920142,40.79934882851331
115,mid_risk,内蒙古自治区呼和浩特市赛罕区中专路街道中专路社区,111.74452300396685,40.82929336528174
116,mid_risk,四川省成都市天府新区华阳街道龙河社区凯华丽景小区,104.0749265632293,30.520156586960724
117,mid_risk,江苏省苏州市姑苏区吴门桥街道长欣苑南区4幢,120.6141477195432,31.27945242545635
118,mid_risk,内蒙古自治区呼和浩特市玉泉区昭君路街道小黑河社区,111.6675844844955,40.76989901626964
119,mid_risk,江苏省苏州市张家港市杨舍镇新农花苑25幢,120.57044533614386,31.84940323635621
120,mid_risk,内蒙古自治区呼和浩特市赛罕区乌兰察布东路街道瑞光社区,111.70842064450414,40.79839423697477
121,mid_risk,内蒙古自治区呼和浩特市赛罕区中专路街道春雨社区,111.7454186649732,40.82634176286611
122,mid_risk,内蒙古自治区呼和浩特市玉泉区小黑河镇祥和苑社区,111.62416237241528,40.75932788836316
123,mid_risk,四川省成都市温江区公平街道丽晶公馆小区,103.87800083780688,30.69632290628007
124,mid_risk,内蒙古自治区呼和浩特市赛罕区昭乌达南路街道前巧报社区,111.74058168854182,40.78605225220726
125,mid_risk,内蒙古自治区呼和浩特市玉泉区鄂尔多斯路街道前八里庄村,111.61526815973045,40.7794923469077
126,mid_risk,内蒙古自治区呼和浩特市赛罕区乌兰察布路街道武警社区,111.71051675058112,40.831019861715696
127,mid_risk,江苏省苏州市苏州工业园区绿地·华尔道名邸小区,120.73728492359555,31.337077961307216
128,mid_risk,江苏省苏州市相城区北桥街道盛北花园45幢,120.60603009197173,31.520997174934905
129,mid_risk,内蒙古自治区呼和浩特市赛罕区昭乌达路街道天野社区,111.70842064450414,40.79839423697477
130,mid_risk,内蒙古自治区呼和浩特市赛罕区中专路街道万达社区,111.74201619261069,40.8375721796201
131,mid_risk,内蒙古自治区呼和浩特市玉泉区西菜园街道西苑社区,111.64914981814194,40.797253938325085
132,mid_risk,内蒙古包头市达茂联合旗小文公乡腮林忽洞村,111.4031959254432,41.326993918032
133,mid_risk,江苏省苏州市相城区北桥街道漕韵家园28幢,120.61274456633662,31.501478445702425
134,mid_risk,四川省成都市高新区石羊街道天府世家小区,104.05865537586595,30.582730751566572
135,mid_risk,云南省文山壮族苗族自治州麻栗坡县杨万乡哪都村委会达干村小组,104.96253899197802,23.21255205303431
136,mid_risk,江苏省苏州市相城区万宇名都花园5幢,120.63592614849655,31.39426947896085
137,mid_risk,江苏省苏州市苏州工业园区阳浦路150号1幢,120.80507132687013,31.313737224423065
138,mid_risk,内蒙古自治区呼和浩特市赛罕区榆林镇东干丈村,112.07685085789154,40.944984648848575
139,mid_risk,内蒙古自治区呼和浩特市回民区攸攸板镇攸攸板村,111.61925600738088,40.831869992056475
140,mid_risk,内蒙古自治区呼和浩特市赛罕区乌兰察布路街道先锋社区,111.71530777318804,40.83093606947973
141,mid_risk,内蒙古自治区呼和浩特市玉泉区昭君路街道天骄路社区,111.66026661831957,40.77994468565185
142,mid_risk,内蒙古自治区呼和浩特市回民区环河街街道县府街社区,111.64282996938759,40.806784310995575
143,mid_risk,内蒙古自治区呼和浩特市玉泉区长和廊街道观音庙社区,111.65254397568084,40.80346099853216
144,mid_risk,云南省临沧市镇康县南伞镇新城社区公主路以东，自文景路以北至泰安路以南片区,98.8377069760365,23.773330044033955
145,mid_risk,内蒙古自治区呼和浩特市玉泉区小召前街街道五塔北街社区,111.66629326015546,40.806525332786066
146,mid_risk,四川省成都市高新区中和街道乐活公社小区,104.10391739729171,30.53801515953712
147,mid_risk,云南省红河哈呢族彝族自治州河口瑶族自治县主城区的迎宾丽景小区（含老百货公司住宿楼）,103.96854265567518,22.5129149709807
148,mid_risk,内蒙古自治区呼和浩特市玉泉区石东路街道三里营东社区,111.67600277492114,40.805572620048835
149,mid_risk,内蒙古自治区呼和浩特市玉泉区昭君路街道闻都社区,111.68664796470605,40.78617700200866
150,mid_risk,湖北省武汉市青山区红卫路街道58街坊127门,114.37990843648852,30.62565248321472
151,mid_risk,内蒙古自治区呼和浩特市土默特左旗台阁牧镇三间房村,111.57715916541954,40.78557585191477
152,mid_risk,内蒙古自治区呼和浩特市玉泉区长和廊街道菩提塔西社区,111.66020966575023,40.79958148378355
153,mid_risk,江苏省苏州市吴中区郭巷街道建发独墅湾82幢,120.7160241881076,31.25182601683476
154,mid_risk,内蒙古自治区呼和浩特市新城区东风路街道丽苑社区,111.70565592963607,40.85005117134822
155,mid_risk,内蒙古自治区呼和浩特市赛罕区巴彦镇学苑社区,111.70842064450414,40.79839423697477
156,mid_risk,内蒙古自治区呼和浩特市新城区东风路街道祥园社区,111.71637702623656,40.84751148025905
157,mid_risk,江苏省苏州市张家港市凤凰镇金谷小区18、19幢,120.64407611506638,31.79352749598951
158,mid_risk,内蒙古自治区呼和浩特市玉泉区小黑河镇金川南区,111.55577904512933,40.804830345087716
159,mid_risk,内蒙古自治区呼和浩特市回民区环河街街道阿吉拉沁社区,111.64850465512467,40.8131837662832
160,mid_risk,内蒙古自治区呼和浩特市新城区东风路街道东影北街社区,111.71383194706569,40.84317822565207
161,mid_risk,四川省成都市高新区中和街道名著司南小区7栋、8栋、9栋、10栋,104.08139103917074,30.51473210767665
162,mid_risk,江苏省苏州市张家港市杨舍镇君临新城6号楼,120.57554618432117,31.873662015214773
163,mid_risk,湖北省武汉市江岸区后湖街道同鑫花园小区29栋,114.30723501369174,30.65269786581568
164,high_risk,广东省东莞市大朗镇杨新路82号、112号、124号、158号、168号、238号,113.97362024378496,22.928967435971934
165,mid_risk,内蒙古自治区呼和浩特市土默特左旗金海街道友谊馨居小区,111.56843455281499,40.789425739619844
166,mid_risk,云南省红河哈呢族彝族自治州河口瑶族自治县河口农场23队,103.94544362779924,22.535465602947458
167,mid_risk,内蒙古自治区呼和浩特市新城区成吉思汗大街街道苏雅拉社区,111.68553262858487,40.85791608757671
168,mid_risk,内蒙古自治区呼和浩特市土默特左旗敕勒川乳业开发区易购城,110.91682008503726,40.60366512416534
169,mid_risk,内蒙古自治区呼和浩特市新城区成吉思汗大街街道上新营村,111.68972007971962,40.880147326121765
170,mid_risk,内蒙古自治区呼和浩特市玉泉区西菜园街道芦花园社区,111.65003141516944,40.797280017338934
171,mid_risk,内蒙古自治区呼和浩特市新城区东风路街道芳汀花园社区,111.72094003705826,40.84497872823471
172,mid_risk,内蒙古自治区呼和浩特市玉泉区鄂尔多斯路街道华宇社区,111.62701727715654,40.79888761158698
173,mid_risk,内蒙古自治区呼和浩特市玉泉区小召前街街道建华北街社区,111.66629326015546,40.806525332786066
174,mid_risk,四川省成都市高新区中和街道中德世邦和庭（原中德K区）1栋、7栋、8栋,104.08553797672701,30.525897912287405
175,mid_risk,江苏省苏州市姑苏区胥江路361号（东方苑）1幢,120.61175553197013,31.29439653718576
176,mid_risk,内蒙古自治区呼和浩特市玉泉区石东路街道苁蓉社区,111.68225453211785,40.80403672826485
177,mid_risk,湖北省武汉市东湖高新区关东街道保利时代天悦小区28栋,114.41304830615361,30.49485664243715
178,mid_risk,内蒙古自治区呼和浩特市新城区成吉思汗大街街道哈拉更村,111.75447883410337,40.926792470586506
179,mid_risk,内蒙古自治区呼和浩特市土默特左旗白庙子镇碱房村,111.59688757136857,40.702687132477934
180,high_risk,内蒙古自治区呼和浩特市新城区东风路街道海东路社区,111.71404071326621,40.846984429199864
181,high_risk,内蒙古自治区呼和浩特市新城区成吉思汗大街道毫沁营村,111.71739660299039,40.874799733471725
182,mid_risk,内蒙古自治区呼和浩特市新城区成吉思汗大街街道塔利村,111.79944764861067,40.891544197420714
183,mid_risk,内蒙古自治区呼和浩特市玉泉区昭君路街道沟子板社区,111.6825070457967,40.754244001906834
184,mid_risk,内蒙古自治区呼和浩特市土默特左旗金海街道半山半水小区,111.54270232199002,40.78316552910468
185,mid_risk,内蒙古自治区呼和浩特市回民区攸攸板镇钢铁路街道咱家社区,111.62685998386175,40.81850996001886
186,mid_risk,江苏省苏州市苏州工业园区文华公寓4号楼,120.77885868225843,31.30685245553093
187,high_risk,内蒙古自治区呼和浩特市土默特左旗白庙子镇东坝什村,111.58780363656004,40.68530443578555
188,high_risk,内蒙古自治区呼和浩特市回民区环河街街道巴彦南路社区,111.64079342096592,40.81578955252421
189,mid_risk,江苏省苏州市苏州工业园区南山·丽舍40幢,120.7327658180665,31.312595814215676
190,mid_risk,内蒙古自治区呼和浩特市回民区钢铁路街道西机务段社区,111.63214193042987,40.81621891482663
191,mid_risk,内蒙古自治区呼和浩特市赛罕区中专路街道巨海社区,111.74040597998406,40.820304985200906
192,mid_risk,内蒙古自治区呼和浩特市新城区东风路街道昭君新村社区,111.71414087433057,40.839094462475714
193,mid_risk,内蒙古自治区呼和浩特市和林格尔县经济开发区第一农场,111.8284302182624,40.384797744251024
194,mid_risk,四川省成都市高新区桂溪街道英郡三期小区,104.07954295524506,30.556542925509724
195,mid_risk,内蒙古自治区呼和浩特市回民区攸攸板镇东棚子村,111.55212878068951,40.8168809367323
196,mid_risk,内蒙古自治区呼和浩特市回民区攸攸板镇一间房村,111.6008910495349,40.83961768790128
197,mid_risk,内蒙古自治区呼和浩特市回民区攸攸板镇高伦特社区,111.6008910495349,40.83961768790128
198,mid_risk,内蒙古自治区呼和浩特市赛罕区中专路街道园艺所社区,111.73730835309401,40.832066914493325
199,mid_risk,内蒙古自治区呼和浩特市赛罕区乌兰察布路街道军区第三干休所社区,111.70842064450414,40.79839423697477
200,mid_risk,内蒙古自治区呼和浩特市土默特左旗金海街道金华社区,111.16958672672367,40.7352937117589
201,mid_risk,内蒙古自治区呼和浩特市赛罕区乌兰察布路街道长乐宫社区,111.71649811781931,40.83548710254496
202,mid_risk,内蒙古自治区呼和浩特市土默特左旗白庙子镇新营子村,111.59896301641884,40.67668455569886
203,mid_risk,内蒙古自治区呼和浩特市回民区环河街街道太平街社区,111.65567654665524,40.815867085011725
204,mid_risk,广西壮族自治区防城港市防城区峒中镇友谊路口至官田路相交汇处、官田路至河堤路全段、峒中汽车站货场西面小巷所围成的区域,107.50636295971817,21.600900024724986
205,mid_risk,内蒙古自治区呼和浩特市回民区攸攸板镇巴彦树贵社区,111.6008910495349,40.83961768790128
206,mid_risk,内蒙古自治区呼和浩特市新城区西街街道曙光社区,111.69119653465582,40.83573928030132
