id,type,address,lon,lat
1,high_risk,黑龙江省黑河市爱辉区热电社区阳光家园小区,127.48899197607187,50.245924399313324
2,high_risk,四川省成都市成华区成华区理工东苑西区,104.15718116487812,30.6881278307557
3,high_risk,黑龙江省黑河市爱辉区张地营子乡泡子沿村,126.96448441114838,50.81496598610616
4,high_risk,河北省辛集市小辛庄乡小章北宋片区,115.26148474506736,38.12413115090993
5,high_risk,河北省石家庄市深泽县河庄村,115.22273903181095,38.13491057369398
6,high_risk,黑龙江省黑河市爱辉区鹿源春社区宏志小区,127.50228528066972,50.256415452492284
7,mid_risk,辽宁省大连市甘井子区泉水街道滨河社区金地檀溪小区D3区8号楼,121.63864494179909,39.0093055229709
8,mid_risk,辽宁省大连市泉水街道滨河社区欧尚广场小区P5区9号楼,121.60748883213542,39.01133437400086
9,mid_risk,辽宁省大连市庄河市黑岛镇希望家园二期小区,123.18769500049886,39.709996645956785
10,mid_risk,辽宁省大连市庄河市黑岛镇山南头村宫西屯,123.18803716506764,39.71180755163
11,mid_risk,辽宁省大连市庄河市吴炉镇小房身村山咀屯,123.06984441420332,39.76489150229667
12,mid_risk,辽宁省大连市庄河市长岭镇洪昌村庙下屯,122.70736933753322,39.87289236231193
13,mid_risk,辽宁省大连市庄河市城关街道财政社区昌盛街二段91号楼,122.9839050531831,39.69819926147457
14,mid_risk,辽宁省大连市庄河市新华街道长征社区新华路二段64号楼,122.97003836017832,39.7059703660832
15,mid_risk,辽宁省大连市庄河市城关街道水仙社区金岳福里小区,122.97355962794687,39.695605042234114
16,mid_risk,辽宁省大连市庄河市昌盛街道将军湖社区状秀苑小区,122.97203161027441,39.6851561765571
17,mid_risk,辽宁省大连市庄河市昌盛街道张屯社区,122.94408873941993,39.64389587147214
18,mid_risk,云南省德宏傣族景颇族自治州瑞丽市畹町镇国防街片区（东至和平街、南至民主街和环东路、西至正阳路、北至国防街）,98.08044297714152,24.088295110953855
19,mid_risk,北京市海淀区西三旗街道富力桃园C区,116.38624804359988,40.069552052628424
20,mid_risk,四川省成都市都江堰市光明街27号、光明街29号、光明街65号,103.64187332942068,31.000538745412854
21,mid_risk,四川省成都市高新区高新区香榭国际三期小区,104.10196573874072,30.55891400900403
22,mid_risk,四川省成都市成华区兴元华盛二期,104.1028360171188,30.71163388978776
23,mid_risk,辽宁省大连市中山区葵英街道武昌社区武昌街184号楼,121.65310595556255,38.914734735527844
24,mid_risk,辽宁省大连市庄河市南关岭街道姚兴社区姚家路32号楼,121.61820040669748,39.031130095870616
25,mid_risk,辽宁省大连市甘井子区泉水街道龙园社区龙畔金泉五期K3区26号楼,121.63084998556678,39.01477411209362
26,mid_risk,辽宁省大连市庄河市兴达街道干沟社区下河沿屯,123.00754108810055,39.726432431567616
27,mid_risk,辽宁省大连市庄河市城关街道水仙社区未来新家园小区,122.97601236131132,39.688828185308736
28,mid_risk,辽宁省大连市庄河市城关街道新兴社区新华路一段22号楼,122.973259504076,39.69835054510196
29,mid_risk,辽宁省大连市庄河市城关街道黄金社区新华小区,122.97142857778557,39.699309869828184
30,mid_risk,辽宁省大连市庄河市城关街道海洋村刘亮屯,122.98546280476795,39.64743369612816
31,mid_risk,辽宁省大连市庄河市昌盛街道将军湖社区鑫兴紫郡小区,122.97036103151751,39.66697424818581
32,mid_risk,辽宁省大连市庄河市昌盛街道将军湖社区铭润福邸小区,122.97350626859959,39.665166253060995
33,mid_risk,四川省成都市新都区三合嘉苑小区,104.1511537098063,30.784828209616407
34,mid_risk,四川省成都市高新区保利百合花园小区,104.04924589514059,30.64704132849492
35,mid_risk,江西省上饶市信州区铁三社区金凤花园,117.96881934448356,28.4633453919458
36,mid_risk,四川省成都市郫都区西郡兰庭小区B区,103.986735060465,30.765721600701994
37,mid_risk,四川省成都市东部新区草池街道金鸡村1社安顺街354号至裕民街14号,104.41409785824655,30.328477386949736
38,mid_risk,辽宁省大连市庄河市城关街道海洋村邵亮屯,122.98546280476795,39.64743369612816
39,mid_risk,河南省郑州市新密市新华路办事处新惠街社区,113.40545620545946,34.544597517095276
40,mid_risk,云南省德宏傣族景颇族自治州瑞丽市勐卯镇姐东村委会大等贺村民小组,97.83377214689676,23.985036100497357
41,mid_risk,河南省郑州市荥阳市贾峪镇鹿村,113.48691993893732,34.66719886455745
42,mid_risk,河南省郑州市荥阳市贾峪镇楚村,113.45282026177857,34.68586521589883
43,mid_risk,河南省郑州市荥阳市贾峪镇郭岗村,113.47391696668038,34.68448191849155
44,mid_risk,河南省郑州市荥阳市贾峪镇文泽社区,113.45721585029995,34.67979800610509
45,mid_risk,河南省周口市扶沟县南关社区,114.40901203983616,34.05347686981731
46,mid_risk,辽宁省大连市庄河市新华街道小寺社区,122.9598414248429,39.68480656024352
47,mid_risk,辽宁省大连市庄河市城关街道海洋村沙岗屯,122.98546280476795,39.64743369612816
48,mid_risk,四川省成都市郫都区天璟荟小区,103.99413296566186,30.742323838346696
49,mid_risk,四川省成都市锦江区蓝光·凯丽香江小区,104.0903768790176,30.60421799257684
50,mid_risk,黑龙江省哈尔滨市平房区金色嘉园小区二期（7号、8号、9号楼）,126.6490947395002,45.6128035494089
51,mid_risk,河北省石家庄市深泽县西河村,115.25836672664222,38.14387112876271
52,mid_risk,江西省上饶市信州区海德文景苑,117.98010574473776,28.44638611295257
53,mid_risk,甘肃省天水市麦积区东岔镇码头村,106.67773929024179,34.38430921879734
54,mid_risk,甘肃省天水市麦积区花牛镇天飞家园小区,105.84325937488384,34.566006105216765
55,mid_risk,甘肃省天水市麦积区桥南街道羲皇社区,105.90077913431543,34.555433763165496
56,mid_risk,河南省郑州市金水区未来路办事处银基王朝四期,113.72241602838055,34.76230683326999
57,mid_risk,四川省成都市锦江区首创娇子1号小区,104.1320189987298,30.602359512507228
58,mid_risk,四川省成都市金牛区营门口街道顶峰水岸汇景小区(一期、二期),104.04138545243664,30.701488555170627
59,mid_risk,四川省成都市成华区华府沙河小区,104.10360604460196,30.686984888076783
60,mid_risk,重庆市长寿区菩提街道古镇社区西二支路88号中央公园小区一组团,107.08592543880005,29.863705485261136
61,mid_risk,重庆市渝北区龙塔街道黄龙路53号东原晴天见小区,106.5452499949027,29.596640000696844
62,mid_risk,重庆市渝北区宝圣湖街道石盘河社区金石大道398号重庆星充新能源科技有限公司办公区,106.59313839213219,29.644819669461047
63,mid_risk,云南省德宏傣族景颇族自治州瑞丽市麓川社区翡翠园南片区,97.85355597828922,24.00611665934277
64,mid_risk,江苏省常州市武进区湖塘御城,119.97297398721628,31.70854493028789
65,mid_risk,江苏省常州市天宁区兰陵街道工人新村南,119.95346009662303,31.76975942849317
66,mid_risk,江苏省常州市天宁区兰陵街道九洲新世界花苑君玺,119.95820521581841,31.76925934052325
67,mid_risk,河南省郑州市荥阳市贾峪镇滨湖社区,113.45721585029995,34.67979800610509
68,mid_risk,黑龙江省黑河市爱辉区温馨社区北国明珠小区,127.48496047077364,50.250169322888155
69,mid_risk,黑龙江省黑河市爱辉区瑷珲镇外四道沟村,127.51722158604531,50.08807304086803
70,mid_risk,黑龙江省黑河市爱辉区罕达汽镇猪肚河村,126.59132273588102,50.32646003438903
71,mid_risk,黑龙江省黑河市爱辉区武庙屯社区中房90号楼,127.52070997583223,50.24805641321888
72,mid_risk,黑龙江省黑河市爱辉区联通社区金龙小区,127.52327903976023,50.246301430179
73,mid_risk,黑龙江省黑河市爱辉区金融社区华和小区,127.50663227086308,50.25770961645177
74,mid_risk,黑龙江省黑河市爱辉区长海社区龙滨路交通A区,127.52437164875202,50.24596789194973
75,mid_risk,黑龙江省黑河市爱辉区长海社区安居小区,127.53149089957978,50.24446843867739
76,mid_risk,黑龙江省黑河市爱辉区长海社区鹏瑞新起点小区,127.51871277319191,50.24956606369371
77,mid_risk,黑龙江省黑河市爱辉区福龙社区益民二区,127.49026945633764,50.25495584008524
78,mid_risk,黑龙江省黑河市爱辉区博文社区学府家园小区,127.52408140624176,50.23831868053997
79,mid_risk,黑龙江省黑河市爱辉区温馨社区欧雅河畔小区,127.49128624834438,50.249437323627575
80,mid_risk,黑龙江省黑河市爱辉区金兰社区林业集资楼小区,127.52310135493036,50.24885243035054
81,mid_risk,北京市昌平区天通苑北街道天通苑北苑第二社区,116.43164786509087,40.08291117610684
82,mid_risk,黑龙江省将哈尔滨市平房区绿色新城西区,126.66494228598512,45.58768805221877
83,mid_risk,黑龙江省哈尔滨市平房区国际花都一期,126.63481150223032,45.59927897560684
84,mid_risk,江西省上饶市铅山县葛仙山镇,117.71642163695348,28.321504694791088
85,mid_risk,黑龙江省哈尔滨市香坊区恒大时代广场一期,126.76584472188568,45.72881939004821
86,mid_risk,黑龙江省黑河市爱辉区长海社区中房76号楼小区,127.50967087908113,50.24742708997267
87,mid_risk,黑龙江省黑河市爱辉区博文社区尚品佳苑小区,127.52214699515656,50.23962641710275
88,mid_risk,黑龙江省黑河市爱辉区博文社区昌辉雅典城小区,127.52881457797386,50.24334996738546
89,mid_risk,黑龙江省黑河市爱辉区人保财险社区林业集资楼1号楼4单元,127.52310135493036,50.24885243035054
90,mid_risk,黑龙江省黑河市爱辉区长海社区盛泰小区76号楼5单元,127.50091222069773,50.25638400647708
91,mid_risk,山东省日照市五莲县洪凝街道学府壹号小区,119.22372970034205,35.74838323668352
92,mid_risk,宁夏回族自治区银川市兴庆区太阳都市花园小区,106.29604999769657,38.491635972465055
93,mid_risk,宁夏回族自治区银川市金凤区森林半岛小区,106.21703261961405,38.489134929554
94,mid_risk,北京市昌平区北七家镇宏福苑社区,116.37515271292392,40.11566848098961
95,inc_mid_risk,辽宁省大连市甘井子区泉水街道滨河社区金地檀溪小区D3区8号楼,121.63864494179909,39.0093055229709
96,inc_mid_risk,辽宁省大连市泉水街道滨河社区欧尚广场小区P5区9号楼,121.60748883213542,39.01133437400086
97,inc_mid_risk,辽宁省大连市庄河市黑岛镇希望家园二期小区,123.18769500049886,39.709996645956785
98,inc_mid_risk,辽宁省大连市庄河市黑岛镇山南头村宫西屯,123.18803716506764,39.71180755163
99,inc_mid_risk,辽宁省大连市庄河市吴炉镇小房身村山咀屯,123.06984441420332,39.76489150229667
100,inc_mid_risk,辽宁省大连市庄河市长岭镇洪昌村庙下屯,122.70736933753322,39.87289236231193
101,inc_mid_risk,辽宁省大连市庄河市城关街道财政社区昌盛街二段91号楼,122.9839050531831,39.69819926147457
102,inc_mid_risk,辽宁省大连市庄河市新华街道长征社区新华路二段64号楼,122.97003836017832,39.7059703660832
103,inc_mid_risk,辽宁省大连市庄河市城关街道水仙社区金岳福里小区,122.97355962794687,39.695605042234114
104,inc_mid_risk,辽宁省大连市庄河市昌盛街道将军湖社区状秀苑小区,122.97203161027441,39.6851561765571
105,inc_mid_risk,辽宁省大连市庄河市昌盛街道张屯社区,122.94408873941993,39.64389587147214
106,inc_mid_risk,云南省德宏傣族景颇族自治州瑞丽市畹町镇国防街片区（东至和平街、南至民主街和环东路、西至正阳路、北至国防街）,98.08044297714152,24.088295110953855
107,inc_mid_risk,北京市海淀区西三旗街道富力桃园C区,116.38624804359988,40.069552052628424
108,dec_high_risk,内蒙古自治区阿拉善盟额济纳旗达来呼布镇,101.07718711367652,41.96964154275975
109,dec_mid_risk,甘肃省兰州市城关区雁北路天庆丽舍小区,103.8731950829896,36.07994905746202
110,dec_mid_risk,甘肃省兰州市城关区云祥小区,103.84254633627798,36.047124661713596
